[
  {"id":"sd-1","name":"센터커피 성수","category":"카페","area":"성수동","address":"서울 성동구 연무장5가길 7","lat":37.5447,"lng":127.0557,"rating":4.5,"reviewCount":3120,"priceRange":"1만원 이하","menuExamples":["스페셜티 라떼","에스프레소"],"mood":"감성적","reason":"넓은 공간과 로스팅 향이 좋아 첫 만남 대화에 좋아요","imageQuery":"specialty coffee shop interior"},
  {"id":"sd-2","name":"어니언 성수","category":"카페","area":"성수동","address":"서울 성동구 아차산로9길 8","lat":37.5421,"lng":127.0560,"rating":4.4,"reviewCount":8800,"priceRange":"1만원 이하","menuExamples":["팡도르","올드패션드 도넛"],"mood":"감성적","reason":"성수의 시그니처 베이커리 카페, 인증샷도 좋아요","imageQuery":"vintage cafe bakery seoul"},
  {"id":"sd-3","name":"대림창고","category":"카페","area":"성수동","address":"서울 성동구 성수이로 78","lat":37.5444,"lng":127.0556,"rating":4.3,"reviewCount":5400,"priceRange":"1만~3만원","menuExamples":["브런치","파스타","커피"],"mood":"활기참","reason":"창고형 공간이 넓어 자연스러운 대화가 가능해요","imageQuery":"warehouse cafe brunch seoul"},
  {"id":"sd-4","name":"미피 카페 성수","category":"카페","area":"성수동","address":"서울 성동구 연무장길 41","lat":37.5443,"lng":127.0570,"rating":4.2,"reviewCount":1800,"priceRange":"1만원 이하","menuExamples":["미피 케이크","라떼"],"mood":"감성적","reason":"귀여운 테마로 가벼운 대화 시작하기 좋아요","imageQuery":"cute themed cafe"},
  {"id":"sd-5","name":"성수동 보름","category":"레스토랑","area":"성수동","address":"서울 성동구 성수일로4길 25","lat":37.5435,"lng":127.0545,"rating":4.6,"reviewCount":920,"priceRange":"3만~5만원","menuExamples":["한우 카츠","계절 코스"],"mood":"프라이빗","reason":"조용하고 플레이팅이 예뻐 분위기 좋아요","imageQuery":"modern korean restaurant"},
  {"id":"sd-6","name":"마초쉐프 성수","category":"레스토랑","area":"성수동","address":"서울 성동구 연무장길 38","lat":37.5446,"lng":127.0565,"rating":4.4,"reviewCount":2200,"priceRange":"1만~3만원","menuExamples":["스테이크 덮밥","파스타"],"mood":"활기참","reason":"부담 없는 가격에 양식 캐주얼","imageQuery":"casual steak restaurant"},
  {"id":"sd-7","name":"와인앤모어 성수","category":"와인바","area":"성수동","address":"서울 성동구 서울숲2길 32","lat":37.5440,"lng":127.0440,"rating":4.5,"reviewCount":640,"priceRange":"3만~5만원","menuExamples":["내추럴 와인","치즈 플레이트"],"mood":"감성적","isAfter":true,"reason":"애프터로 와인 한 잔 이어가기 좋아요","imageQuery":"natural wine bar seoul"},
  {"id":"sd-8","name":"르페셰미뇽","category":"와인바","area":"성수동","address":"서울 성동구 성수이로7길 26","lat":37.5448,"lng":127.0590,"rating":4.6,"reviewCount":410,"priceRange":"5만원 이상","menuExamples":["프렌치 와인","샤퀴테리"],"mood":"프라이빗","isAfter":true,"reason":"조도가 낮아 깊은 대화에 좋아요","imageQuery":"intimate wine bar"},
  {"id":"sd-9","name":"서울숲","category":"액티비티","area":"성수동","address":"서울 성동구 뚝섬로 273","lat":37.5443,"lng":127.0379,"rating":4.5,"reviewCount":12400,"priceRange":"1만원 이하","menuExamples":["산책","사슴 방사장"],"mood":"조용함","reason":"걷기 좋고 자연스럽게 대화가 풀려요","imageQuery":"seoul forest park"},
  {"id":"sd-10","name":"성수연방","category":"액티비티","area":"성수동","address":"서울 성동구 성수이로14길 14","lat":37.5455,"lng":127.0568,"rating":4.3,"reviewCount":1500,"priceRange":"1만~3만원","menuExamples":["편집샵 둘러보기","루프탑"],"mood":"활기참","reason":"구경거리 많아 데이트 코스 짜기 좋아요","imageQuery":"rooftop shopping mall seoul"},

  {"id":"hn-1","name":"콤포트 한남","category":"카페","area":"한남동","address":"서울 용산구 이태원로54길 31","lat":37.5365,"lng":127.0011,"rating":4.5,"reviewCount":2100,"priceRange":"1만원 이하","menuExamples":["핸드드립","피낭시에"],"mood":"조용함","reason":"차분한 분위기로 첫 대화 부담이 적어요","imageQuery":"minimal cafe seoul"},
  {"id":"hn-2","name":"콰르텟","category":"카페","area":"한남동","address":"서울 용산구 한남대로20길 28","lat":37.5354,"lng":127.0034,"rating":4.4,"reviewCount":1700,"priceRange":"1만~3만원","menuExamples":["계절 디저트","말차"],"mood":"감성적","reason":"플레이팅이 예쁘고 사진 찍기 좋아요","imageQuery":"dessert cafe matcha"},
  {"id":"hn-3","name":"테이크아웃드로잉","category":"카페","area":"한남동","address":"서울 용산구 이태원로 252","lat":37.5350,"lng":127.0050,"rating":4.3,"reviewCount":2900,"priceRange":"1만원 이하","menuExamples":["드립커피","쿠키"],"mood":"감성적","reason":"한남 갤러리 카페의 정석","imageQuery":"gallery cafe seoul"},
  {"id":"hn-4","name":"부첼라 한남","category":"레스토랑","area":"한남동","address":"서울 용산구 한남대로20길 21","lat":37.5350,"lng":127.0040,"rating":4.4,"reviewCount":1900,"priceRange":"3만~5만원","menuExamples":["트러플 파스타","피자"],"mood":"활기참","reason":"이탈리안 캐주얼, 분위기 따뜻","imageQuery":"italian restaurant pasta"},
  {"id":"hn-5","name":"오프레","category":"레스토랑","area":"한남동","address":"서울 용산구 대사관로11길 33","lat":37.5357,"lng":127.0020,"rating":4.6,"reviewCount":850,"priceRange":"5만원 이상","menuExamples":["프렌치 코스","와인 페어링"],"mood":"프라이빗","reason":"기념일급 분위기, 조용하고 격식 있음","imageQuery":"french fine dining"},
  {"id":"hn-6","name":"사케하우스 한남","category":"와인바","area":"한남동","address":"서울 용산구 한남대로27길 8","lat":37.5345,"lng":127.0028,"rating":4.5,"reviewCount":720,"priceRange":"3만~5만원","menuExamples":["사케 페어링","오뎅"],"mood":"프라이빗","isAfter":true,"reason":"애프터로 가볍게 잔 기울이기 좋아요","imageQuery":"japanese sake bar"},
  {"id":"hn-7","name":"르챔버","category":"와인바","area":"한남동","address":"서울 용산구 이태원로 240","lat":37.5348,"lng":127.0046,"rating":4.6,"reviewCount":1100,"priceRange":"5만원 이상","menuExamples":["시그니처 칵테일"],"mood":"프라이빗","isAfter":true,"reason":"세계적으로 유명한 스피크이지 바","imageQuery":"speakeasy cocktail bar"},
  {"id":"hn-8","name":"리움미술관","category":"액티비티","area":"한남동","address":"서울 용산구 이태원로55길 60","lat":37.5384,"lng":127.0048,"rating":4.7,"reviewCount":6200,"priceRange":"1만~3만원","menuExamples":["상설 전시","기획전"],"mood":"조용함","reason":"전시 관람 후 자연스럽게 카페로 이어져요","imageQuery":"art museum interior"},
  {"id":"hn-9","name":"한남 블루스퀘어","category":"액티비티","area":"한남동","address":"서울 용산구 이태원로 294","lat":37.5347,"lng":127.0055,"rating":4.4,"reviewCount":3800,"priceRange":"3만~5만원","menuExamples":["뮤지컬","공연"],"mood":"감성적","reason":"공연 데이트는 대화 부담이 적어요","imageQuery":"musical theater"},

  {"id":"gn-1","name":"커피한약방 강남","category":"카페","area":"강남","address":"서울 강남구 강남대로 396","lat":37.5012,"lng":127.0264,"rating":4.4,"reviewCount":3300,"priceRange":"1만원 이하","menuExamples":["쌍화 라떼","드립커피"],"mood":"감성적","reason":"한방 컨셉이 신선한 대화 소재","imageQuery":"hanok cafe seoul"},
  {"id":"gn-2","name":"퍼블릭가든","category":"카페","area":"강남","address":"서울 강남구 압구정로50길 28","lat":37.5260,"lng":127.0290,"rating":4.3,"reviewCount":2400,"priceRange":"1만~3만원","menuExamples":["브런치","플랫화이트"],"mood":"활기참","reason":"테라스가 있어 낮 시간 데이트에 좋아요","imageQuery":"garden brunch cafe"},
  {"id":"gn-3","name":"비스트로 드 욘트빌","category":"레스토랑","area":"강남","address":"서울 강남구 도산대로67길 14","lat":37.5232,"lng":127.0386,"rating":4.5,"reviewCount":1600,"priceRange":"5만원 이상","menuExamples":["프렌치 코스","와인"],"mood":"프라이빗","reason":"청담 분위기, 비주얼·맛 모두 좋음","imageQuery":"french bistro seoul"},
  {"id":"gn-4","name":"라쿠치나","category":"레스토랑","area":"강남","address":"서울 강남구 압구정로42길 41","lat":37.5266,"lng":127.0357,"rating":4.4,"reviewCount":2100,"priceRange":"3만~5만원","menuExamples":["이탈리안","파스타"],"mood":"활기참","reason":"오랫동안 사랑받은 클래식 이탈리안","imageQuery":"italian fine dining"},
  {"id":"gn-5","name":"펠리체","category":"와인바","area":"강남","address":"서울 강남구 도산대로55길 21","lat":37.5240,"lng":127.0370,"rating":4.5,"reviewCount":540,"priceRange":"5만원 이상","menuExamples":["이태리 와인","치즈"],"mood":"프라이빗","isAfter":true,"reason":"애프터로 잔잔하게 이어가기 좋아요","imageQuery":"italian wine bar"},
  {"id":"gn-6","name":"르스타쥬","category":"와인바","area":"강남","address":"서울 강남구 압구정로50길 24","lat":37.5258,"lng":127.0288,"rating":4.6,"reviewCount":780,"priceRange":"5만원 이상","menuExamples":["내추럴 와인","타파스"],"mood":"감성적","isAfter":true,"reason":"감각적인 인테리어로 분위기 만점","imageQuery":"natural wine seoul"},
  {"id":"gn-7","name":"코엑스 별마당도서관","category":"액티비티","area":"강남","address":"서울 강남구 영동대로 513","lat":37.5126,"lng":127.0590,"rating":4.5,"reviewCount":18000,"priceRange":"1만원 이하","menuExamples":["도서 구경","카페"],"mood":"조용함","reason":"무료로 둘러보기 좋고 사진도 잘 나와요","imageQuery":"starfield library coex"},
  {"id":"gn-8","name":"선릉과 정릉","category":"액티비티","area":"강남","address":"서울 강남구 선릉로100길 1","lat":37.5089,"lng":127.0479,"rating":4.5,"reviewCount":4200,"priceRange":"1만원 이하","menuExamples":["산책","유네스코"],"mood":"조용함","reason":"도심 속 산책로, 가볍게 걷기 좋아요","imageQuery":"royal tomb park seoul"},

  {"id":"hd-1","name":"앤트러사이트 합정","category":"카페","area":"홍대","address":"서울 마포구 토정로5길 10","lat":37.5478,"lng":126.9116,"rating":4.5,"reviewCount":4100,"priceRange":"1만원 이하","menuExamples":["스페셜티 커피","스콘"],"mood":"감성적","reason":"공장형 카페의 원조, 분위기 좋아요","imageQuery":"industrial coffee roastery"},
  {"id":"hd-2","name":"카페 라이브러리","category":"카페","area":"홍대","address":"서울 마포구 와우산로17길 19","lat":37.5530,"lng":126.9234,"rating":4.3,"reviewCount":1700,"priceRange":"1만원 이하","menuExamples":["책 + 커피"],"mood":"조용함","reason":"책 보며 조용히 시간 보내기 좋음","imageQuery":"book cafe library"},
  {"id":"hd-3","name":"제로콤플렉스","category":"레스토랑","area":"홍대","address":"서울 마포구 양화로11길 60","lat":37.5497,"lng":126.9197,"rating":4.7,"reviewCount":620,"priceRange":"5만원 이상","menuExamples":["미쉐린 코스"],"mood":"프라이빗","reason":"미쉐린 1스타, 특별한 자리에 추천","imageQuery":"michelin korean restaurant"},
  {"id":"hd-4","name":"교토미식","category":"레스토랑","area":"홍대","address":"서울 마포구 와우산로21길 36","lat":37.5536,"lng":126.9244,"rating":4.4,"reviewCount":2800,"priceRange":"1만~3만원","menuExamples":["오므라이스","돈카츠"],"mood":"활기참","reason":"가볍게 즐기는 일식","imageQuery":"japanese casual restaurant"},
  {"id":"hd-5","name":"무월 와인바","category":"와인바","area":"홍대","address":"서울 마포구 와우산로15길 21","lat":37.5533,"lng":126.9232,"rating":4.5,"reviewCount":480,"priceRange":"3만~5만원","menuExamples":["내추럴 와인","안주"],"mood":"감성적","isAfter":true,"reason":"홍대답지 않게 조용해요","imageQuery":"cozy wine bar"},
  {"id":"hd-6","name":"믹솔로지 살롱","category":"와인바","area":"홍대","address":"서울 마포구 양화로 161","lat":37.5505,"lng":126.9210,"rating":4.4,"reviewCount":900,"priceRange":"3만~5만원","menuExamples":["시그니처 칵테일"],"mood":"활기참","isAfter":true,"reason":"애프터로 분위기 띄우기 좋음","imageQuery":"cocktail bar lounge"},
  {"id":"hd-7","name":"경의선 숲길","category":"액티비티","area":"홍대","address":"서울 마포구 연남동","lat":37.5598,"lng":126.9259,"rating":4.6,"reviewCount":22000,"priceRange":"1만원 이하","menuExamples":["산책","피크닉"],"mood":"활기참","reason":"걷기 좋고 사람 구경도 재밌어요","imageQuery":"gyeongui line forest park"},
  {"id":"hd-8","name":"트릭아이미술관","category":"액티비티","area":"홍대","address":"서울 마포구 홍익로3길 20","lat":37.5546,"lng":126.9217,"rating":4.3,"reviewCount":3400,"priceRange":"1만~3만원","menuExamples":["체험형 전시"],"mood":"활기참","reason":"사진 찍으며 자연스럽게 친해져요","imageQuery":"trick art museum"},

  {"id":"it-1","name":"펠트 이태원","category":"카페","area":"이태원","address":"서울 용산구 회나무로13길 12","lat":37.5345,"lng":126.9930,"rating":4.5,"reviewCount":1900,"priceRange":"1만원 이하","menuExamples":["스페셜티 커피"],"mood":"감성적","reason":"이태원 골목 분위기와 잘 어울려요","imageQuery":"specialty coffee shop"},
  {"id":"it-2","name":"파스타이 이태원","category":"레스토랑","area":"이태원","address":"서울 용산구 녹사평대로 234","lat":37.5343,"lng":126.9943,"rating":4.4,"reviewCount":1500,"priceRange":"3만~5만원","menuExamples":["파스타","와인"],"mood":"활기참","reason":"이국적인 분위기, 캐주얼한 데이트","imageQuery":"italian pasta restaurant"},
  {"id":"it-3","name":"부자피자펍","category":"레스토랑","area":"이태원","address":"서울 용산구 이태원로 187","lat":37.5340,"lng":126.9950,"rating":4.4,"reviewCount":3500,"priceRange":"1만~3만원","menuExamples":["수제 피자","맥주"],"mood":"활기참","reason":"가볍게 즐기기 좋은 분위기","imageQuery":"craft pizza pub"},
  {"id":"it-4","name":"사우스사이드팔러","category":"와인바","area":"이태원","address":"서울 용산구 회나무로13길 9","lat":37.5346,"lng":126.9928,"rating":4.5,"reviewCount":820,"priceRange":"3만~5만원","menuExamples":["칵테일","스몰플레이트"],"mood":"프라이빗","isAfter":true,"reason":"애프터로 이어가기 좋아요","imageQuery":"speakeasy bar"},
  {"id":"it-5","name":"제스트","category":"와인바","area":"이태원","address":"서울 용산구 회나무로 26","lat":37.5350,"lng":126.9920,"rating":4.6,"reviewCount":640,"priceRange":"5만원 이상","menuExamples":["월드 베스트 바","칵테일"],"mood":"프라이빗","isAfter":true,"reason":"아시아 베스트 바, 특별한 밤에","imageQuery":"world class cocktail bar"},
  {"id":"it-6","name":"남산 산책로","category":"액티비티","area":"이태원","address":"서울 용산구 소월로","lat":37.5512,"lng":126.9882,"rating":4.6,"reviewCount":15000,"priceRange":"1만원 이하","menuExamples":["야경","산책"],"mood":"감성적","reason":"이태원에서 바로 이어지는 야경 코스","imageQuery":"namsan tower night view"},
  {"id":"it-7","name":"용산공원","category":"액티비티","area":"이태원","address":"서울 용산구 서빙고로 221","lat":37.5298,"lng":126.9810,"rating":4.4,"reviewCount":5400,"priceRange":"1만원 이하","menuExamples":["피크닉","산책"],"mood":"조용함","reason":"넓고 여유로워서 천천히 걷기 좋아요","imageQuery":"yongsan park seoul"},

  {"id":"yn-1","name":"커피리브레 연남","category":"카페","area":"연남동","address":"서울 마포구 성미산로 198","lat":37.5631,"lng":126.9249,"rating":4.5,"reviewCount":3700,"priceRange":"1만원 이하","menuExamples":["스페셜티 커피"],"mood":"조용함","reason":"연남 로스터리의 정석, 차분해요","imageQuery":"specialty coffee roastery"},
  {"id":"yn-2","name":"연남방앗간","category":"카페","area":"연남동","address":"서울 마포구 성미산로 161-10","lat":37.5630,"lng":126.9241,"rating":4.4,"reviewCount":2800,"priceRange":"1만원 이하","menuExamples":["흑임자 라떼","떡 디저트"],"mood":"감성적","reason":"한식 디저트 카페, 대화 소재가 많아요","imageQuery":"korean dessert cafe"},
  {"id":"yn-3","name":"하이웨이스트","category":"레스토랑","area":"연남동","address":"서울 마포구 동교로51길 31","lat":37.5638,"lng":126.9252,"rating":4.5,"reviewCount":1400,"priceRange":"3만~5만원","menuExamples":["아메리칸 그릴","버거"],"mood":"활기참","reason":"감각적인 인테리어와 푸짐한 음식","imageQuery":"american grill restaurant"},
  {"id":"yn-4","name":"연남 비빔밥","category":"레스토랑","area":"연남동","address":"서울 마포구 연남로 25","lat":37.5625,"lng":126.9248,"rating":4.3,"reviewCount":1100,"priceRange":"1만~3만원","menuExamples":["모던 한식","비빔밥"],"mood":"조용함","reason":"부담 없는 한식 데이트","imageQuery":"modern korean bibimbap"},
  {"id":"yn-5","name":"연남살롱","category":"와인바","area":"연남동","address":"서울 마포구 동교로46길 33","lat":37.5635,"lng":126.9260,"rating":4.5,"reviewCount":520,"priceRange":"3만~5만원","menuExamples":["내추럴 와인","치즈"],"mood":"프라이빗","isAfter":true,"reason":"조용한 골목 와인바, 애프터로 최고","imageQuery":"natural wine bar interior"},
  {"id":"yn-6","name":"연트럴파크","category":"액티비티","area":"연남동","address":"서울 마포구 연남동","lat":37.5615,"lng":126.9255,"rating":4.6,"reviewCount":18500,"priceRange":"1만원 이하","menuExamples":["산책","피크닉"],"mood":"활기참","reason":"활기찬 분위기, 사람 구경하며 대화","imageQuery":"yeonnam park picnic"},
  {"id":"yn-7","name":"연남 책방","category":"액티비티","area":"연남동","address":"서울 마포구 동교로 246","lat":37.5640,"lng":126.9270,"rating":4.4,"reviewCount":830,"priceRange":"1만원 이하","menuExamples":["독립서점 투어"],"mood":"조용함","reason":"독립서점 둘러보기, 취향 알아가기 좋아요","imageQuery":"independent bookstore"}
]
